{
"type": "FeatureCollection",
"name": "barragem",
"crs": { "type": "name", "properties": { "name": "urn:ogc:def:crs:OGC:1.3:CRS84" } },
"features": [
{ "type": "Feature", "properties": { "Cidade": "Piracuruca", "Nome": "Barragem de Piracuruca", "Latitude": -3.96142899221093, "Longitude": -41.673060315470003, "Época do Ano com Água": "Disponível o ano todo", "Trilha": "Sem trilha", "Nível": "Fácil", "Entrada": "Livre", "Classificação": "Barragem" }, "geometry": { "type": "Point", "coordinates": [ -41.673060315470003, -3.96142899221093 ] } },
{ "type": "Feature", "properties": { "Cidade": "Barras", "Nome": "Barragem do Rio Longá", "Latitude": -4.2062727065372103, "Longitude": -42.239559612165102, "Época do Ano com Água": "Disponível o ano todo", "Trilha": "Sem trilha", "Nível": "Fácil", "Entrada": "Livre", "Classificação": "Barragem" }, "geometry": { "type": "Point", "coordinates": [ -42.239559612165102, -4.20627270653721 ] } },
{ "type": "Feature", "properties": { "Cidade": "Altos", "Nome": "Barragem do Bexiga", "Latitude": -4.9717111261073832, "Longitude": -42.454432909565256, "Época do Ano com Água": "Disponível o ano todo", "Trilha": "Sem trilha", "Nível": "Fácil", "Entrada": "Livre", "Classificação": "Barragem" }, "geometry": { "type": "Point", "coordinates": [ -42.454432909565256, -4.971711126107383 ] } },
{ "type": "Feature", "properties": { "Cidade": "Piracuruca", "Nome": "Barragem dos Tinguís", "Latitude": -4.03414660371367, "Longitude": -41.854660845386697, "Época do Ano com Água": "Disponível o ano todo", "Trilha": "Sem trilha", "Nível": "Fácil", "Entrada": "Livre", "Classificação": "Barragem" }, "geometry": { "type": "Point", "coordinates": [ -41.854660845386697, -4.03414660371367 ] } },
{ "type": "Feature", "properties": { "Cidade": "Campo Maior", "Nome": "Barragem dos Corredores", "Latitude": -5.1071943858492448, "Longitude": -42.037840051711008, "Época do Ano com Água": "Disponível o ano todo", "Trilha": "Sem trilha", "Nível": "Fácil", "Entrada": "Livre", "Classificação": "Barragem" }, "geometry": { "type": "Point", "coordinates": [ -42.037840051711008, -5.107194385849245 ] } },
{ "type": "Feature", "properties": { "Cidade": "Valença do Piauí", "Nome": "Barragem Mesa de Pedra", "Latitude": -6.1927330414570179, "Longitude": -41.993196453579621, "Época do Ano com Água": "Disponível o ano todo", "Trilha": "Sem trilha", "Nível": "Fácil", "Entrada": "Livre", "Classificação": "Barragem" }, "geometry": { "type": "Point", "coordinates": [ -41.993196453579621, -6.192733041457018 ] } },
{ "type": "Feature", "properties": { "Cidade": "Guadalupe", "Nome": "Barragem de Boa Esperança", "Latitude": -6.7676395850280739, "Longitude": -43.570977418875081, "Época do Ano com Água": "Disponível o ano todo", "Trilha": "Sem trilha", "Nível": "Fácil", "Entrada": "Livre", "Classificação": "Barragem" }, "geometry": { "type": "Point", "coordinates": [ -43.570977418875081, -6.767639585028074 ] } },
{ "type": "Feature", "properties": { "Cidade": "São Francisco do Piauí", "Nome": "Barragem Salinas", "Latitude": -6.9965778968596011, "Longitude": -42.518486814953619, "Época do Ano com Água": "Disponível o ano todo", "Trilha": "Sem trilha", "Nível": "Fácil", "Entrada": "Livre", "Classificação": "Barragem" }, "geometry": { "type": "Point", "coordinates": [ -42.518486814953619, -6.996577896859601 ] } },
{ "type": "Feature", "properties": { "Cidade": "Conceição do Canindé", "Nome": "Barragem Pedra Redonda", "Latitude": -8.0112392747382462, "Longitude": -41.494668825650265, "Época do Ano com Água": "Disponível o ano todo", "Trilha": "Sem trilha", "Nível": "Fácil", "Entrada": "Livre", "Classificação": "Barragem" }, "geometry": { "type": "Point", "coordinates": [ -41.494668825650265, -8.011239274738246 ] } },
{ "type": "Feature", "properties": { "Cidade": "Campo Maior", "Nome": "Barragem do Emparedado", "Latitude": -5.0809796601542558, "Longitude": -42.055151251958542, "Época do Ano com Água": "Disponível o ano todo", "Trilha": "Sem trilha", "Nível": "Fácil", "Entrada": "Livre", "Classificação": "Barragem" }, "geometry": { "type": "Point", "coordinates": [ -42.055151251958542, -5.080979660154256 ] } },
{ "type": "Feature", "properties": { "Cidade": "José de Freitas", "Nome": "Barragem do Bezerro", "Latitude": -4.7668322717226372, "Longitude": -42.597322154735139, "Época do Ano com Água": "Disponível o ano todo", "Trilha": "Sem trilha", "Nível": "Fácil", "Entrada": "Livre", "Classificação": "Barragem" }, "geometry": { "type": "Point", "coordinates": [ -42.597322154735139, -4.766832271722637 ] } }
]
}
