{
"type": "FeatureCollection",
"name": "delta_do_rio_parnaiba",
"crs": { "type": "name", "properties": { "name": "urn:ogc:def:crs:EPSG::4674" } },
"features": [
{ "type": "Feature", "properties": { "Name": "Foz do Delta do Parnaíba - Mar", "MUNICÍPIO": "Ilha Grande", "UF": "PI", "DESCRICAO": "Praia em mar aberto", "TIPO": "Praia", "FONTE": "Obsevações campo do Projeto Geodiversidade do Delta do Rio Parnaíba (CPRM, 2022)." }, "geometry": { "type": "Point", "coordinates": [ -41.807543807089651, -2.750673479285931, 0.0 ] } },
{ "type": "Feature", "properties": { "Name": "Morro do Gemedor", "MUNICÍPIO": "Ilha Grande", "UF": "PI", "DESCRICAO": "Praia em mar aberto", "TIPO": "Praia", "FONTE": "Obsevações campo do Projeto Geodiversidade do Delta do Rio Parnaíba (CPRM, 2022)." }, "geometry": { "type": "Point", "coordinates": [ -41.788005082, -2.771436298091231, 0.0 ] } },
{ "type": "Feature", "properties": { "Name": "Porto dos Tatus", "MUNICÍPIO": "Ilha Grande", "UF": "PI", "DESCRICAO": "Local de partida das embarcações para visitar o Delta", "TIPO": "Rio", "FONTE": "Obsevações campo do Projeto Geodiversidade do Delta do Rio Parnaíba (CPRM, 2022)." }, "geometry": { "type": "Point", "coordinates": [ -41.831245989999957, -2.830861977093138, 0.0 ] } },
{ "type": "Feature", "properties": { "Name": "Dunas do Delta", "MUNICÍPIO": "Ilha Grande", "UF": "PI", "DESCRICAO": "Ponto de parada para  desfrutar um banho no rio", "TIPO": "Rio", "FONTE": "Obsevações campo do Projeto Geodiversidade do Delta do Rio Parnaíba (CPRM, 2022)." }, "geometry": { "type": "Point", "coordinates": [ -41.836070878999969, -2.814704211092614, 0.0 ] } },
{ "type": "Feature", "properties": { "Name": "Praia da Pedra do Sal", "MUNICÍPIO": "Parnaíba", "UF": "PI", "DESCRICAO": "Praia em mar aberto", "TIPO": "Praia", "FONTE": "Obsevações campo do Projeto Geodiversidade do Delta do Rio Parnaíba (CPRM, 2022)." }, "geometry": { "type": "Point", "coordinates": [ -41.727959205183652, -2.806868199749486, 0.0 ] } },
{ "type": "Feature", "properties": { "Name": "Porto das Barcas", "MUNICÍPIO": "Parnaíba", "UF": "PI", "DESCRICAO": "Local de grande beleza cênica", "TIPO": "Monumento", "FONTE": "Obsevações campo do Projeto Geodiversidade do Delta do Rio Parnaíba (CPRM, 2022)." }, "geometry": { "type": "Point", "coordinates": [ -41.781272920999982, -2.900070278095405, 0.0 ] } },
{ "type": "Feature", "properties": { "Name": "Porto do Sossego", "MUNICÍPIO": "Parnaíba", "UF": "PI", "DESCRICAO": "Local de grande beleza cênica", "TIPO": "Rio", "FONTE": "Obsevações campo do Projeto Geodiversidade do Delta do Rio Parnaíba (CPRM, 2022)." }, "geometry": { "type": "Point", "coordinates": [ -41.732770443999982, -2.887661584095012, 0.0 ] } },
{ "type": "Feature", "properties": { "Name": "Lagoa do Portinho", "MUNICÍPIO": "Parnaíba", "UF": "PI", "DESCRICAO": "Área turística,lagoa de águas claras e cristalinas na margem de uma rodovia asfaltada. Local de grande beleza cênica", "TIPO": "Lagoa", "FONTE": "Obsevações campo do Projeto Geodiversidade do Delta do Rio Parnaíba (CPRM, 2022)." }, "geometry": { "type": "Point", "coordinates": [ -41.677014135999968, -2.93257920009651, 0.0 ] } },
{ "type": "Feature", "properties": { "Name": "Praia do Coqueiro", "MUNICÍPIO": "Luís Correia", "UF": "PI", "DESCRICAO": "Praia em mar aberto", "TIPO": "Praia", "FONTE": "Obsevações campo do Projeto Geodiversidade do Delta do Rio Parnaíba (CPRM, 2022)." }, "geometry": { "type": "Point", "coordinates": [ -41.571812909999956, -2.903361187095555, 0.0 ] } },
{ "type": "Feature", "properties": { "Name": "Praia da Atalaia", "MUNICÍPIO": "Luís Correia", "UF": "PI", "DESCRICAO": "Praia em mar aberto", "TIPO": "Praia", "FONTE": "Obsevações campo do Projeto Geodiversidade do Delta do Rio Parnaíba (CPRM, 2022)." }, "geometry": { "type": "Point", "coordinates": [ -41.628406348999938, -2.889131720095087, 0.0 ] } },
{ "type": "Feature", "properties": { "Name": "Praia Peito de Moça", "MUNICÍPIO": "Luís Correia", "UF": "PI", "DESCRICAO": "Praia em mar aberto", "TIPO": "Praia", "FONTE": "Obsevações campo do Projeto Geodiversidade do Delta do Rio Parnaíba (CPRM, 2022)." }, "geometry": { "type": "Point", "coordinates": [ -41.611147703999961, -2.898700541095357, 0.0 ] } },
{ "type": "Feature", "properties": { "Name": "Praia do Barro Preto", "MUNICÍPIO": "Luís Correia", "UF": "PI", "DESCRICAO": "Praia em mar aberto", "TIPO": "Praia", "FONTE": "Obsevações campo do Projeto Geodiversidade do Delta do Rio Parnaíba (CPRM, 2022)." }, "geometry": { "type": "Point", "coordinates": [ -41.599639158999935, -2.90350475409552, 0.0 ] } },
{ "type": "Feature", "properties": { "Name": "Vila Itaqui", "MUNICÍPIO": "Luís Correia", "UF": "PI", "DESCRICAO": "Praia em mar aberto", "TIPO": "Praia", "FONTE": "Obsevações campo do Projeto Geodiversidade do Delta do Rio Parnaíba (CPRM, 2022)." }, "geometry": { "type": "Point", "coordinates": [ -41.558399486697944, -2.90146272910768, 0.0 ] } },
{ "type": "Feature", "properties": { "Name": "Farol do Itaqui", "MUNICÍPIO": "Luís Correia", "UF": "PI", "DESCRICAO": "Presença de um farol para navegação", "TIPO": "Monumento", "FONTE": "Obsevações campo do Projeto Geodiversidade do Delta do Rio Parnaíba (CPRM, 2022)." }, "geometry": { "type": "Point", "coordinates": [ -41.555729160999931, -2.901632668752628, 0.0 ] } },
{ "type": "Feature", "properties": { "Name": "Arvore Penteada", "MUNICÍPIO": "Luís Correia", "UF": "PI", "DESCRICAO": "Presença de uma árvore de formato único", "TIPO": "Monumento", "FONTE": "Obsevações campo do Projeto Geodiversidade do Delta do Rio Parnaíba (CPRM, 2022)." }, "geometry": { "type": "Point", "coordinates": [ -41.519468631999985, -2.92674567909632, 0.0 ] } },
{ "type": "Feature", "properties": { "Name": "Praia do Arrombado", "MUNICÍPIO": "Luís Correia", "UF": "PI", "DESCRICAO": "Praia em mar aberto", "TIPO": "Praia", "FONTE": "Obsevações campo do Projeto Geodiversidade do Delta do Rio Parnaíba (CPRM, 2022)." }, "geometry": { "type": "Point", "coordinates": [ -41.529225615999962, -2.911494409095802, 0.0 ] } },
{ "type": "Feature", "properties": { "Name": "Arvore Ardomecida", "MUNICÍPIO": "Luís Correia", "UF": "PI", "DESCRICAO": "Presença de uma árvore de formato único", "TIPO": "Monumento", "FONTE": "Obsevações campo do Projeto Geodiversidade do Delta do Rio Parnaíba (CPRM, 2022)." }, "geometry": { "type": "Point", "coordinates": [ -41.520380415999966, -2.9122867590958, 0.0 ] } },
{ "type": "Feature", "properties": { "Name": "Praia da Carnaubinha", "MUNICÍPIO": "Luís Correia", "UF": "PI", "DESCRICAO": "Praia em mar aberto", "TIPO": "Praia", "FONTE": "Obsevações campo do Projeto Geodiversidade do Delta do Rio Parnaíba (CPRM, 2022)." }, "geometry": { "type": "Point", "coordinates": [ -41.499093695999939, -2.905764528095629, 0.0 ] } },
{ "type": "Feature", "properties": { "Name": "Praia de Maramar", "MUNICÍPIO": "Luís Correia", "UF": "PI", "DESCRICAO": "Praia em mar aberto", "TIPO": "Praia", "FONTE": "Obsevações campo do Projeto Geodiversidade do Delta do Rio Parnaíba (CPRM, 2022)." }, "geometry": { "type": "Point", "coordinates": [ -41.460840373893824, -2.904757689381206, 0.0 ] } },
{ "type": "Feature", "properties": { "Name": "Praia de Macapá", "MUNICÍPIO": "Luís Correia", "UF": "PI", "DESCRICAO": "Praia em mar aberto", "TIPO": "Praia", "FONTE": "Obsevações campo do Projeto Geodiversidade do Delta do Rio Parnaíba (CPRM, 2022)." }, "geometry": { "type": "Point", "coordinates": [ -41.448286021999934, -2.911635316095811, 0.0 ] } },
{ "type": "Feature", "properties": { "Name": "Ilha do Guará", "MUNICÍPIO": "Luís Correia", "UF": "PI", "DESCRICAO": "Ilha localizada na foz do rio Macapá", "TIPO": "Rio", "FONTE": "Obsevações campo do Projeto Geodiversidade do Delta do Rio Parnaíba (CPRM, 2022)." }, "geometry": { "type": "Point", "coordinates": [ -41.445008254999948, -2.915343727095912, 0.0 ] } },
{ "type": "Feature", "properties": { "Name": "Pontal da Barra Grande", "MUNICÍPIO": "Cajueiro da Praia", "UF": "PI", "DESCRICAO": "Praia em mar aberto", "TIPO": null, "FONTE": "Obsevações campo do Projeto Geodiversidade do Delta do Rio Parnaíba (CPRM, 2022)." }, "geometry": { "type": "Point", "coordinates": [ -41.435376755342794, -2.908759245658885, 0.0 ] } },
{ "type": "Feature", "properties": { "Name": "Barra Grande", "MUNICÍPIO": "Cajueiro da Praia", "UF": "PI", "DESCRICAO": "Praia em mar aberto", "TIPO": null, "FONTE": "Obsevações campo do Projeto Geodiversidade do Delta do Rio Parnaíba (CPRM, 2022)." }, "geometry": { "type": "Point", "coordinates": [ -41.41007412099998, -2.90852108109571, 0.0 ] } },
{ "type": "Feature", "properties": { "Name": "Praia de Barrinha", "MUNICÍPIO": "Cajueiro da Praia", "UF": "PI", "DESCRICAO": "Praia em mar aberto", "TIPO": null, "FONTE": "Obsevações campo do Projeto Geodiversidade do Delta do Rio Parnaíba (CPRM, 2022)." }, "geometry": { "type": "Point", "coordinates": [ -41.386610961420338, -2.912767391765192, 0.0 ] } },
{ "type": "Feature", "properties": { "Name": "Ponta do Sardim", "MUNICÍPIO": "Cajueiro da Praia", "UF": "PI", "DESCRICAO": "Praia em mar aberto", "TIPO": null, "FONTE": "Obsevações campo do Projeto Geodiversidade do Delta do Rio Parnaíba (CPRM, 2022)." }, "geometry": { "type": "Point", "coordinates": [ -41.367361219657099, -2.918760443777595, 0.0 ] } },
{ "type": "Feature", "properties": { "Name": "Praia do Cajueiro", "MUNICÍPIO": "Cajueiro da Praia", "UF": "PI", "DESCRICAO": "Praia em mar aberto", "TIPO": null, "FONTE": "Obsevações campo do Projeto Geodiversidade do Delta do Rio Parnaíba (CPRM, 2022)." }, "geometry": { "type": "Point", "coordinates": [ -41.342837588420366, -2.927622948647338, 0.0 ] } },
{ "type": "Feature", "properties": { "Name": "Projeto Peixe Boi", "MUNICÍPIO": "Cajueiro da Praia", "UF": "PI", "DESCRICAO": "Local de preservação e educação ambiental", "TIPO": "Monumento", "FONTE": "Obsevações campo do Projeto Geodiversidade do Delta do Rio Parnaíba (CPRM, 2022)." }, "geometry": { "type": "Point", "coordinates": [ -41.336122474999975, -2.92703010409629, 0.0 ] } },
{ "type": "Feature", "properties": { "Name": "Praia dos Mangues", "MUNICÍPIO": "Cajueiro da Praia", "UF": "PI", "DESCRICAO": "Praia em mar aberto", "TIPO": null, "FONTE": "Obsevações campo do Projeto Geodiversidade do Delta do Rio Parnaíba (CPRM, 2022)." }, "geometry": { "type": "Point", "coordinates": [ -41.33054484999996, -2.929430204096415, 0.0 ] } },
{ "type": "Feature", "properties": { "Name": "Porto da Lama - Mar", "MUNICÍPIO": "Cajueiro da Praia", "UF": "PI", "DESCRICAO": "Praia em mar aberto", "TIPO": null, "FONTE": "Obsevações campo do Projeto Geodiversidade do Delta do Rio Parnaíba (CPRM, 2022)." }, "geometry": { "type": "Point", "coordinates": [ -41.32364057999996, -2.939972555096738, 0.0 ] } },
{ "type": "Feature", "properties": { "Name": "Lagoa do Sobradinho - Lagoa", "MUNICÍPIO": "Luís Correia", "UF": "PI", "DESCRICAO": "Local de grande beleza cênica", "TIPO": "Lagoa", "FONTE": "Obsevações campo do Projeto Geodiversidade do Delta do Rio Parnaíba (CPRM, 2022)." }, "geometry": { "type": "Point", "coordinates": [ -41.532045212999947, -2.944233716096864, 0.0 ] } }
]
}
