{
"type": "FeatureCollection",
"name": "ecoturismo",
"crs": { "type": "name", "properties": { "name": "urn:ogc:def:crs:OGC:1.3:CRS84" } },
"features": [
{ "type": "Feature", "properties": { "Cidade": "Piripiri", "Nome": "Açude Caldeirão", "Latitude": -4.3343373590646799, "Longitude": -41.725680118619302, "Época do Ano com Água": "Disponível o ano todo", "Trilha": "Sem trilha", "Nível": "Fácil", "Entrada": "Livre", "Classificação": "Açude" }, "geometry": { "type": "Point", "coordinates": [ -41.725680118619302, -4.33433735906468 ] } },
{ "type": "Feature", "properties": { "Cidade": "Beneditinos", "Nome": "Açude de Beneditinos", "Latitude": -5.4426626350188583, "Longitude": -42.365065676708099, "Época do Ano com Água": "Disponível o ano todo", "Trilha": "Sem trilha", "Nível": "Fácil", "Entrada": "Livre", "Classificação": "Açude" }, "geometry": { "type": "Point", "coordinates": [ -42.365065676708099, -5.442662635018858 ] } },
{ "type": "Feature", "properties": { "Cidade": "Monsenhor Gil", "Nome": "Balneário 3 Riachos", "Latitude": -5.7188011620415189, "Longitude": -42.55776583072678, "Época do Ano com Água": "Disponível o ano todo", "Trilha": "150 metros", "Nível": "Fácil", "Entrada": "Livre", "Classificação": "Balneário" }, "geometry": { "type": "Point", "coordinates": [ -42.55776583072678, -5.718801162041519 ] } },
{ "type": "Feature", "properties": { "Cidade": "Santa Filomena", "Nome": "Balneário Atalaia", "Latitude": -9.0657298805297248, "Longitude": -45.923563934133483, "Época do Ano com Água": "Disponível o ano todo", "Trilha": "100m", "Nível": "Fácil", "Entrada": "Livre", "Classificação": "Balneário" }, "geometry": { "type": "Point", "coordinates": [ -45.923563934133483, -9.065729880529725 ] } },
{ "type": "Feature", "properties": { "Cidade": "Altos", "Nome": "Balneário 3 Carnaúbas", "Latitude": -5.1577707691550874, "Longitude": -42.405830881439151, "Época do Ano com Água": "Disponível de Fevereiro a Maio", "Trilha": "Sem trilha", "Nível": "Fácil", "Entrada": "Livre", "Classificação": "Balneário" }, "geometry": { "type": "Point", "coordinates": [ -42.405830881439151, -5.157770769155087 ] } },
{ "type": "Feature", "properties": { "Cidade": "União", "Nome": "Balneário Canto da Canabrava", "Latitude": -4.6314385419705673, "Longitude": -42.695696751431441, "Época do Ano com Água": "Disponível de Fevereiro a Maio", "Trilha": "Sem trilha", "Nível": "Fácil", "Entrada": "Livre", "Classificação": "Balneário" }, "geometry": { "type": "Point", "coordinates": [ -42.695696751431441, -4.631438541970567 ] } },
{ "type": "Feature", "properties": { "Cidade": "Buriti dos Montes", "Nome": "Cânion do Rio Poti", "Latitude": -5.0456010921644356, "Longitude": -41.234038526327858, "Época do Ano com Água": "Disponível o ano todo", "Trilha": "Sem trilha", "Nível": "Fácil", "Entrada": "Livre", "Classificação": "Cânion" }, "geometry": { "type": "Point", "coordinates": [ -41.234038526327858, -5.045601092164436 ] } },
{ "type": "Feature", "properties": { "Cidade": "Piripiri", "Nome": "Cânion dos Pilões", "Latitude": -4.3293942794387403, "Longitude": -41.729387738524402, "Época do Ano com Água": "Disponível o ano todo", "Trilha": "900 metros", "Nível": "Médio", "Entrada": "Livre", "Classificação": "Cânion" }, "geometry": { "type": "Point", "coordinates": [ -41.729387738524402, -4.32939427943874 ] } },
{ "type": "Feature", "properties": { "Cidade": "Ilha Grande", "Nome": "Delta do Parnaíba", "Latitude": -2.7442154205488118, "Longitude": -41.798916375529103, "Época do Ano com Água": "O ano todo", "Trilha": "Sem trilhas", "Nível": "Fácil", "Entrada": "Livre", "Classificação": "Delta" }, "geometry": { "type": "Point", "coordinates": [ -41.798916375529103, -2.744215420548812 ] } },
{ "type": "Feature", "properties": { "Cidade": "Luís Correia", "Nome": "Lagoa do Sobradinho", "Latitude": -2.9532097493824589, "Longitude": -41.533036237420063, "Época do Ano com Água": "O ano todo", "Trilha": "Sem trilhas", "Nível": "Fácil", "Entrada": "Livre", "Classificação": "Lagoa" }, "geometry": { "type": "Point", "coordinates": [ -41.533036237420063, -2.953209749382459 ] } },
{ "type": "Feature", "properties": { "Cidade": "Parnaíba", "Nome": "Lagoa do Portinho", "Latitude": -2.930161567948657, "Longitude": -41.676830334508203, "Época do Ano com Água": "O ano todo", "Trilha": "Sem trilhas", "Nível": "Fácil", "Entrada": "Livre", "Classificação": "Lagoa" }, "geometry": { "type": "Point", "coordinates": [ -41.676830334508203, -2.930161567948657 ] } },
{ "type": "Feature", "properties": { "Cidade": "Barras", "Nome": "Lagoa Azul de Barras", "Latitude": -4.1903821188708097, "Longitude": -42.294161145794703, "Época do Ano com Água": "Disponível de Fevereiro a Julho", "Trilha": "Sem trilha", "Nível": "Fácil", "Entrada": "Com autorização", "Classificação": "Lagoa" }, "geometry": { "type": "Point", "coordinates": [ -42.294161145794703, -4.19038211887081 ] } },
{ "type": "Feature", "properties": { "Cidade": "Luís Correia", "Nome": "Lagoa do Tibas", "Latitude": -2.9381104822936406, "Longitude": -41.592336563288903, "Época do Ano com Água": "Janeiro a Agosto", "Trilha": "Acesso com veículos 4x4", "Nível": "Fácil", "Entrada": "Livre", "Classificação": "Lagoa" }, "geometry": { "type": "Point", "coordinates": [ -41.592336563288903, -2.938110482293641 ] } },
{ "type": "Feature", "properties": { "Cidade": "Palmeira do Piauí", "Nome": "Olho D'água da Chuva", "Latitude": -8.6432227377079816, "Longitude": -44.263201147015273, "Época do Ano com Água": "Disponível o ano todo", "Trilha": "300 metros", "Nível": "Fácil", "Entrada": "Com autorização", "Classificação": "Olho D'água" }, "geometry": { "type": "Point", "coordinates": [ -44.263201147015273, -8.643222737707982 ] } },
{ "type": "Feature", "properties": { "Cidade": "Altos", "Nome": "Olho D'água dos Matões", "Latitude": -5.1099146278658614, "Longitude": -42.472889043331257, "Época do Ano com Água": "Disponível o ano todo", "Trilha": "200 metros", "Nível": "Fácil", "Entrada": "Livre", "Classificação": "Olho D'água" }, "geometry": { "type": "Point", "coordinates": [ -42.472889043331257, -5.109914627865861 ] } },
{ "type": "Feature", "properties": { "Cidade": "Monsenhor Gil", "Nome": "Poço Azul", "Latitude": -5.6039995260747553, "Longitude": -42.51145507717964, "Época do Ano com Água": "Disponível o ano todo", "Trilha": "150 metros", "Nível": "Fácil", "Entrada": "Livre", "Classificação": "Poço" }, "geometry": { "type": "Point", "coordinates": [ -42.51145507717964, -5.603999526074755 ] } },
{ "type": "Feature", "properties": { "Cidade": "União", "Nome": "Poço Fundo", "Latitude": -4.5988013968834656, "Longitude": -42.69700522135971, "Época do Ano com Água": "Disponível de Fevereiro a Maio", "Trilha": "200 metros", "Nível": "Fácil", "Entrada": "Livre", "Classificação": "Poço" }, "geometry": { "type": "Point", "coordinates": [ -42.69700522135971, -4.598801396883466 ] } },
{ "type": "Feature", "properties": { "Cidade": "Piripiri", "Nome": "Poço das Cunhãs", "Latitude": -4.4423254016465199, "Longitude": -41.446391672509399, "Época do Ano com Água": "Disponível de Janeiro a Junho", "Trilha": "900 metros", "Nível": "Fácil", "Entrada": "Livre", "Classificação": "Poço" }, "geometry": { "type": "Point", "coordinates": [ -41.446391672509399, -4.44232540164652 ] } },
{ "type": "Feature", "properties": { "Cidade": "Alvorada do Gurguéia", "Nome": "Poço Violeto", "Latitude": -8.5469883075911017, "Longitude": -43.949700781918892, "Época do Ano com Água": "Disponível o ano todo", "Trilha": "Sem trilha", "Nível": "Fácil", "Entrada": "Livre", "Classificação": "Poço" }, "geometry": { "type": "Point", "coordinates": [ -43.949700781918892, -8.546988307591102 ] } },
{ "type": "Feature", "properties": { "Cidade": "Cajueiro da Praia", "Nome": "Rio Camurupim", "Latitude": -2.9132336820844875, "Longitude": -41.415480851471798, "Época do Ano com Água": "O ano todo", "Trilha": "Sem trilhas", "Nível": "Fácil", "Entrada": "Livre", "Classificação": "Riacho" }, "geometry": { "type": "Point", "coordinates": [ -41.415480851471798, -2.913233682084488 ] } },
{ "type": "Feature", "properties": { "Cidade": "Paquetá", "Nome": "Riacho Sucavão", "Latitude": -7.1368645915076314, "Longitude": -41.717237614219272, "Época do Ano com Água": "Disponível o ano todo", "Trilha": "150 metros", "Nível": "Fácil", "Entrada": "Livre", "Classificação": "Riacho" }, "geometry": { "type": "Point", "coordinates": [ -41.717237614219272, -7.136864591507631 ] } },
{ "type": "Feature", "properties": { "Cidade": "Regeneração", "Nome": "Riacho São Bento", "Latitude": -6.3119094677613203, "Longitude": -42.648206029605952, "Época do Ano com Água": "Disponível o ano todo", "Trilha": "500 metros", "Nível": "Fácil", "Entrada": "Livre", "Classificação": "Riacho" }, "geometry": { "type": "Point", "coordinates": [ -42.648206029605952, -6.31190946776132 ] } },
{ "type": "Feature", "properties": { "Cidade": "Palmeirais", "Nome": "Riachão", "Latitude": -6.0699048271087213, "Longitude": -42.842281026673817, "Época do Ano com Água": "Disponível de Janeiro a Junho", "Trilha": "Sem trilhas", "Nível": "Fácil", "Entrada": "Livre", "Classificação": "Riacho" }, "geometry": { "type": "Point", "coordinates": [ -42.842281026673817, -6.069904827108721 ] } },
{ "type": "Feature", "properties": { "Cidade": "Baixa Grande do Ribeiro", "Nome": "Morro D'água", "Latitude": -9.1236452607579199, "Longitude": -45.337488892868542, "Época do Ano com Água": "Disponível o ano todo", "Trilha": "100m", "Nível": "Fácil", "Entrada": "Com autorização", "Classificação": "Outras" }, "geometry": { "type": "Point", "coordinates": [ -45.337488892868542, -9.12364526075792 ] } },
{ "type": "Feature", "properties": { "Cidade": "Alto Longá", "Nome": "Nascente do Frei Pedro", "Latitude": -5.2284555146432794, "Longitude": -42.173352877578282, "Época do Ano com Água": "Disponível o ano todo", "Trilha": "Sem trilha", "Nível": "Fácil", "Entrada": "Livre", "Classificação": "Outras" }, "geometry": { "type": "Point", "coordinates": [ -42.173352877578282, -5.228455514643279 ] } },
{ "type": "Feature", "properties": { "Cidade": "Parnaíba", "Nome": "Buraco Azul", "Latitude": -2.912164105518392, "Longitude": -41.684730674953236, "Época do Ano com Água": "O ano todo", "Trilha": "Sem trilhas", "Nível": "Fácil", "Entrada": "Livre", "Classificação": "Outras" }, "geometry": { "type": "Point", "coordinates": [ -41.684730674953236, -2.912164105518392 ] } },
{ "type": "Feature", "properties": { "Cidade": "Castelo do Piauí", "Nome": "Esporão Eco", "Latitude": -5.4372620964337752, "Longitude": -41.569143786765537, "Época do Ano com Água": "Disponível o ano todo", "Trilha": "800 metros", "Nível": "Fácil", "Entrada": "Somente com autorização", "Classificação": "Outras" }, "geometry": { "type": "Point", "coordinates": [ -41.569143786765537, -5.437262096433775 ] } },
{ "type": "Feature", "properties": { "Cidade": "Passagem Franca do Piauí", "Nome": "Brejo do Calado", "Latitude": -5.8480137398384278, "Longitude": -42.443493306904472, "Época do Ano com Água": "Disponível o ano todo", "Trilha": "Sem trilha", "Nível": "Fácil", "Entrada": "Paga", "Classificação": "Outras" }, "geometry": { "type": "Point", "coordinates": [ -42.443493306904472, -5.848013739838428 ] } },
{ "type": "Feature", "properties": { "Cidade": "Boa Hora", "Nome": "Brejo do Buriti Cortado", "Latitude": -4.2905131299755697, "Longitude": -42.135508046591099, "Época do Ano com Água": "Disponível de Fevereiro a Maio", "Trilha": "400 metros", "Nível": "Fácil", "Entrada": "Livre", "Classificação": "Outras" }, "geometry": { "type": "Point", "coordinates": [ -42.135508046591099, -4.29051312997557 ] } }
]
}
