{
"type": "FeatureCollection",
"name": "praias",
"crs": { "type": "name", "properties": { "name": "urn:ogc:def:crs:OGC:1.3:CRS84" } },
"features": [
{ "type": "Feature", "properties": { "Cidade": "Parnaíba", "Nome": "Praia da Pedra do Sal", "Latitude": -2.8078178659032611, "Longitude": -41.726487297680762, "Época do Ano com Água": "O ano todo", "Trilha": "Sem trilhas", "Nível": "Fácil", "Entrada": "Livre", "Classificação": "Praia" }, "geometry": { "type": "Point", "coordinates": [ -41.726487297680762, -2.807817865903261 ] } },
{ "type": "Feature", "properties": { "Cidade": "Luís Correia", "Nome": "Praia de Atalaia", "Latitude": -2.8841079032881698, "Longitude": -41.636115421433502, "Época do Ano com Água": "O ano todo", "Trilha": "Sem trilhas", "Nível": "Fácil", "Entrada": "Livre", "Classificação": "Praia" }, "geometry": { "type": "Point", "coordinates": [ -41.636115421433502, -2.88410790328817 ] } },
{ "type": "Feature", "properties": { "Cidade": "Luís Correia", "Nome": "Praia Peito de Moça", "Latitude": -2.8987786543668626, "Longitude": -41.611426526514101, "Época do Ano com Água": "O ano todo", "Trilha": "Sem trilhas", "Nível": "Fácil", "Entrada": "Livre", "Classificação": "Praia" }, "geometry": { "type": "Point", "coordinates": [ -41.611426526514101, -2.898778654366863 ] } },
{ "type": "Feature", "properties": { "Cidade": "Luís Correia", "Nome": "Praia do Coqueiro", "Latitude": -2.881887715647288, "Longitude": -41.6382041565032, "Época do Ano com Água": "O ano todo", "Trilha": "Sem trilhas", "Nível": "Fácil", "Entrada": "Livre", "Classificação": "Praia" }, "geometry": { "type": "Point", "coordinates": [ -41.6382041565032, -2.881887715647288 ] } },
{ "type": "Feature", "properties": { "Cidade": "Luís Correia", "Nome": "Praia do Maramar", "Latitude": -2.9018229720398629, "Longitude": -41.460173450157299, "Época do Ano com Água": "O ano todo", "Trilha": "Sem trilhas", "Nível": "Fácil", "Entrada": "Livre", "Classificação": "Praia" }, "geometry": { "type": "Point", "coordinates": [ -41.460173450157299, -2.901822972039863 ] } },
{ "type": "Feature", "properties": { "Cidade": "Luís Correia", "Nome": "Praia do Macapá", "Latitude": -2.9118854116521904, "Longitude": -41.447598564718199, "Época do Ano com Água": "O ano todo", "Trilha": "Sem trilhas", "Nível": "Fácil", "Entrada": "Livre", "Classificação": "Praia" }, "geometry": { "type": "Point", "coordinates": [ -41.447598564718199, -2.91188541165219 ] } },
{ "type": "Feature", "properties": { "Cidade": "Cajueiro da Praia", "Nome": "Praia de Barra Grande", "Latitude": -2.9094047045656524, "Longitude": -41.4118214413662, "Época do Ano com Água": "O ano todo", "Trilha": "Sem trilhas", "Nível": "Fácil", "Entrada": "Livre", "Classificação": "Praia" }, "geometry": { "type": "Point", "coordinates": [ -41.4118214413662, -2.909404704565652 ] } },
{ "type": "Feature", "properties": { "Cidade": "Cajueiro da Praia", "Nome": "Praia de Barrinha", "Latitude": -2.9115834214061644, "Longitude": -41.3858874145116, "Época do Ano com Água": "O ano todo", "Trilha": "Sem trilhas", "Nível": "Fácil", "Entrada": "Livre", "Classificação": "Praia" }, "geometry": { "type": "Point", "coordinates": [ -41.3858874145116, -2.911583421406164 ] } }
]
}
